{"obj":{"id":"246640",
"uuid":"8D11E31667694C7E9ECC324A918B233B",
"name":"244 Middleton Road Mobile Speed Camera",
"alternate_name":null,
"brand":null,
"shop_unit":null,
"floor_level":null,
"street":"244 Middleton Road",
"st_number":"244",
"building":null,
"postcode":"6037",
"telephone":null,
"fax":null,
"email":null,
"www":null,
"qualmark":null,
"x":"2661983.8700000000",
"y":"5998582.0000000000",
"suburb":"Glenside",
"district":"Wellington City",
"region":"Wellington",
"town":"Wellington",
"lon":"174.812494500000",
"lat":"-41.205296700000",
"categories":["771104"],
"volatile":null,
"authority":"GS",
"authority_id":null,
"type":"business",
"usr_address1":null,
"usr_address2":null,
"usr_address3":null,
"usr_address4":null,
"aa_client_id":null,
"bookonline":null,
"votes":0,
"rating":0,
"search_index_num":1,
"search_index_alpha":"a",
"jsclass":"GSPointFeature",
"obj":{"id":"246640","uuid":"8D11E31667694C7E9ECC324A918B233B","url":null,"name":"244 Middleton Road Mobile Speed Camera","brand":null,"street":"244 Middleton Road","st_number":"244","shop_unit":null,"floor_level":null,"building":null,"telephone":null,"tel_after_hours":null,"fax":null,"email":null,"www":null,"suburb":"Glenside","district":"Wellington City","region":"Wellington","town":"Wellington","postcode":"6037","island":null,"full_address":null,"usr_keywords":null,"description":null,"categories":["771104"],"usr_address1":null,"usr_address2":null,"usr_address3":null,"usr_address4":null,"rating":0,"type":"business","votes":0,"volatile":null,"lon":"174.812494500000","lat":"-41.205296700000","verified":0,"authority":null,"authority_id":null,"aa_client_id":null,"bookonline":null,"info_source":null,"search_index_alpha":"a","lastResponse":null},"fqLocationIdentifier":"wellington\/wellington+city\/glenside\/244+middleton+road\/244+middleton+road+mobile+speed+camera","directionsIdentifier":"244+Middleton+Road+Mobile+Speed+Camera%2C+244+Middleton+Road%2C+Glenside%2C+Wellington;174.8124945;-41.2052967"},{"id":"246626","uuid":"FC51D925823B4E72AC7C60B9C140999C","name":"485 Wainui Road","alternate_name":null,"brand":null,"shop_unit":null,"floor_level":null,"street":"Wainui Road","st_number":null,"building":null,"postcode":"4010","telephone":null,"fax":null,"email":null,"www":null,"qualmark":null,"x":"2948655.7200000000","y":"6268695.4300000000","suburb":"Kaiti","district":"Gisborne","region":"Gisborne","town":"Gisborne","lon":"178.042858900000","lat":"-38.674530500000","categories":["771104"],"volatile":null,"authority":"GS","authority_id":null,"type":"business","usr_address1":null,"usr_address2":null,"usr_address3":null,"usr_address4":null,"aa_client_id":null,"bookonline":null,"votes":0,"rating":0,"search_index_num":2,"search_index_alpha":"b","jsclass":"GSPointFeature","obj":{"id":"246626","uuid":"FC51D925823B4E72AC7C60B9C140999C","url":null,"name":"485 Wainui Road","brand":null,"street":"Wainui Road","st_number":null,"shop_unit":null,"floor_level":null,"building":null,"telephone":null,"tel_after_hours":null,"fax":null,"email":null,"www":null,"suburb":"Kaiti","district":"Gisborne","region":"Gisborne","town":"Gisborne","postcode":"4010","island":null,"full_address":null,"usr_keywords":null,"description":null,"categories":["771104"],"usr_address1":null,"usr_address2":null,"usr_address3":null,"usr_address4":null,"rating":0,"type":"business","votes":0,"volatile":null,"lon":"178.042858900000","lat":"-38.674530500000","verified":0,"authority":null,"authority_id":null,"aa_client_id":null,"bookonline":null,"info_source":null,"search_index_alpha":"b","lastResponse":null},"fqLocationIdentifier":"gisborne\/gisborne\/kaiti\/wainui+road\/485+wainui+road\/lon=178.042858900000;lat=-38.674530500000","directionsIdentifier":"485+Wainui+Road%2C+Wainui+Road%2C+Kaiti%2C+Gisborne;178.0428589;-38.6745305"},{"id":"246641","uuid":"32EC17431F6F45DCB4497639D8DF7148","name":"516 Awakeri Road Mobile Speed Camera","alternate_name":"Fonterra Edgecumbe","brand":null,"shop_unit":null,"floor_level":null,"street":"516 Awakeri Road","st_number":"516","building":null,"postcode":"3120","telephone":null,"fax":null,"email":null,"www":null,"qualmark":null,"x":"2846687.4900000000","y":"6351060.4000000000","suburb":"Edgecumbe","district":"Whakatane","region":"Bay of Plenty","town":"Edgecumbe","lon":"176.831689100000","lat":"-37.978668200000","categories":["771104"],"volatile":null,"authority":"GS","authority_id":null,"type":"business","usr_address1":null,"usr_address2":null,"usr_address3":null,"usr_address4":null,"aa_client_id":null,"bookonline":null,"votes":0,"rating":0,"search_index_num":3,"search_index_alpha":"c","jsclass":"GSPointFeature","obj":{"id":"246641","uuid":"32EC17431F6F45DCB4497639D8DF7148","url":null,"name":"516 Awakeri Road Mobile Speed Camera","brand":null,"street":"516 Awakeri Road","st_number":"516","shop_unit":null,"floor_level":null,"building":null,"telephone":null,"tel_after_hours":null,"fax":null,"email":null,"www":null,"suburb":"Edgecumbe","district":"Whakatane","region":"Bay of Plenty","town":"Edgecumbe","postcode":"3120","island":null,"full_address":null,"usr_keywords":null,"description":null,"categories":["771104"],"usr_address1":null,"usr_address2":null,"usr_address3":null,"usr_address4":null,"rating":0,"type":"business","votes":0,"volatile":null,"lon":"176.831689100000","lat":"-37.978668200000","verified":0,"authority":null,"authority_id":null,"aa_client_id":null,"bookonline":null,"info_source":null,"search_index_alpha":"c","lastResponse":null},"fqLocationIdentifier":"bay+of+plenty\/whakatane\/edgecumbe\/516+awakeri+road\/516+awakeri+road+mobile+speed+camera","directionsIdentifier":"516+Awakeri+Road+Mobile+Speed+Camera%2C+516+Awakeri+Road%2C+Edgecumbe%2C+Edgecumbe;176.8316891;-37.9786682"},{"id":"100685","uuid":"A1D09D4B915F4521834E59E20B899D06","name":"Adelaide Road Newtown","alternate_name":null,"brand":null,"shop_unit":null,"floor_level":null,"street":"Adelaide Road","st_number":null,"building":null,"postcode":"6021","telephone":null,"fax":null,"email":null,"www":null,"qualmark":null,"x":"2658709.0700000000","y":"5986704.2500000000","suburb":"Newtown","district":"Wellington City","region":"Wellington","town":"Wellington","lon":"174.776332800000","lat":"-41.312836300000","categories":["771104"],"volatile":"0","authority":"GS","authority_id":null,"type":"business","usr_address1":null,"usr_address2":null,"usr_address3":null,"usr_address4":null,"aa_client_id":null,"bookonline":null,"votes":0,"rating":0,"search_index_num":4,"search_index_alpha":"d","jsclass":"GSPointFeature","obj":{"id":"100685","uuid":"A1D09D4B915F4521834E59E20B899D06","url":null,"name":"Adelaide Road Newtown","brand":null,"street":"Adelaide Road","st_number":null,"shop_unit":null,"floor_level":null,"building":null,"telephone":null,"tel_after_hours":null,"fax":null,"email":null,"www":null,"suburb":"Newtown","district":"Wellington City","region":"Wellington","town":"Wellington","postcode":"6021","island":null,"full_address":null,"usr_keywords":null,"description":null,"categories":["771104"],"usr_address1":null,"usr_address2":null,"usr_address3":null,"usr_address4":null,"rating":0,"type":"business","votes":0,"volatile":"0","lon":"174.776332800000","lat":"-41.312836300000","verified":0,"authority":null,"authority_id":null,"aa_client_id":null,"bookonline":null,"info_source":null,"search_index_alpha":"d","lastResponse":null},"fqLocationIdentifier":"wellington\/wellington+city\/newtown\/adelaide+road\/adelaide+road+newtown\/lon=174.776332800000;lat=-41.312836300000","directionsIdentifier":"Adelaide+Road+Newtown%2C+Adelaide+Road%2C+Newtown%2C+Wellington;174.7763328;-41.3128363"},{"id":"100690","uuid":"B15B5AEA2EA247CF9794A3A536FDB871","name":"Aldwins Road Linwood","alternate_name":null,"brand":null,"shop_unit":null,"floor_level":null,"street":"Aldwins Road","st_number":null,"building":null,"postcode":"8062","telephone":null,"fax":null,"email":null,"www":null,"qualmark":null,"x":"2483230.2500000000","y":"5740920.6000000000","suburb":"Phillipstown","district":"Christchurch City","region":"Canterbury","town":"Christchurch","lon":"172.668644200000","lat":"-43.538683300000","categories":["771104"],"volatile":"0","authority":"GS","authority_id":null,"type":"business","usr_address1":null,"usr_address2":null,"usr_address3":null,"usr_address4":null,"aa_client_id":null,"bookonline":null,"votes":0,"rating":0,"search_index_num":5,"search_index_alpha":"e","jsclass":"GSPointFeature","obj":{"id":"100690","uuid":"B15B5AEA2EA247CF9794A3A536FDB871","url":null,"name":"Aldwins Road Linwood","brand":null,"street":"Aldwins Road","st_number":null,"shop_unit":null,"floor_level":null,"building":null,"telephone":null,"tel_after_hours":null,"fax":null,"email":null,"www":null,"suburb":"Phillipstown","district":"Christchurch City","region":"Canterbury","town":"Christchurch","postcode":"8062","island":null,"full_address":null,"usr_keywords":null,"description":null,"categories":["771104"],"usr_address1":null,"usr_address2":null,"usr_address3":null,"usr_address4":null,"rating":0,"type":"business","votes":0,"volatile":"0","lon":"172.668644200000","lat":"-43.538683300000","verified":0,"authority":null,"authority_id":null,"aa_client_id":null,"bookonline":null,"info_source":null,"search_index_alpha":"e","lastResponse":null},"fqLocationIdentifier":"canterbury\/christchurch+city\/phillipstown\/aldwins+road\/aldwins+road+linwood\/lon=172.668644200000;lat=-43.538683300000","directionsIdentifier":"Aldwins+Road+Linwood%2C+Aldwins+Road%2C+Phillipstown%2C+Christchurch;172.6686442;-43.5386833"},{"id":"100661","uuid":"8D345EC636C345B4AA964D19FC7E6107","name":"Anderson Bay Road Anderson Bay","alternate_name":null,"brand":null,"shop_unit":null,"floor_level":null,"street":"Andersons Bay Road","st_number":null,"building":null,"postcode":"9012","telephone":null,"fax":null,"email":null,"www":null,"qualmark":null,"x":"2316373.6700000000","y":"5476198.0500000000","suburb":"South Dunedin","district":"Dunedin City","region":"Otago","town":"Dunedin","lon":"170.506827300000","lat":"-45.895413500000","categories":["771104"],"volatile":"0","authority":"GS","authority_id":null,"type":"business","usr_address1":null,"usr_address2":null,"usr_address3":null,"usr_address4":null,"aa_client_id":null,"bookonline":null,"votes":0,"rating":0,"search_index_num":6,"search_index_alpha":"f","jsclass":"GSPointFeature","obj":{"id":"100661","uuid":"8D345EC636C345B4AA964D19FC7E6107","url":null,"name":"Anderson Bay Road Anderson Bay","brand":null,"street":"Andersons Bay Road","st_number":null,"shop_unit":null,"floor_level":null,"building":null,"telephone":null,"tel_after_hours":null,"fax":null,"email":null,"www":null,"suburb":"South Dunedin","district":"Dunedin City","region":"Otago","town":"Dunedin","postcode":"9012","island":null,"full_address":null,"usr_keywords":null,"description":null,"categories":["771104"],"usr_address1":null,"usr_address2":null,"usr_address3":null,"usr_address4":null,"rating":0,"type":"business","votes":0,"volatile":"0","lon":"170.506827300000","lat":"-45.895413500000","verified":0,"authority":null,"authority_id":null,"aa_client_id":null,"bookonline":null,"info_source":null,"search_index_alpha":"f","lastResponse":null},"fqLocationIdentifier":"otago\/dunedin+city\/south+dunedin\/andersons+bay+road\/anderson+bay+road+anderson+bay\/lon=170.506827300000;lat=-45.895413500000","directionsIdentifier":"Anderson+Bay+Road+Anderson+Bay%2C+Andersons+Bay+Road%2C+South+Dunedin%2C+Dunedin;170.5068273;-45.8954135"},{"id":"100675","uuid":"3205CDC8B1E144F79E1EDEE693662367","name":"Atkinson Road Titirangi","alternate_name":null,"brand":null,"shop_unit":null,"floor_level":null,"street":"Atkinson Road","st_number":null,"building":null,"postcode":"604","telephone":null,"fax":null,"email":null,"www":null,"qualmark":null,"x":"2657848.5600000000","y":"6473161.1500000000","suburb":"Titirangi","district":"Auckland","region":"Auckland","town":"Auckland","lon":"174.655437500000","lat":"-36.931516400000","categories":["771104"],"volatile":"0","authority":"GS","authority_id":null,"type":"business","usr_address1":null,"usr_address2":null,"usr_address3":null,"usr_address4":null,"aa_client_id":null,"bookonline":null,"votes":0,"rating":0,"search_index_num":7,"search_index_alpha":"g","jsclass":"GSPointFeature","obj":{"id":"100675","uuid":"3205CDC8B1E144F79E1EDEE693662367","url":null,"name":"Atkinson Road Titirangi","brand":null,"street":"Atkinson Road","st_number":null,"shop_unit":null,"floor_level":null,"building":null,"telephone":null,"tel_after_hours":null,"fax":null,"email":null,"www":null,"suburb":"Titirangi","district":"Auckland","region":"Auckland","town":"Auckland","postcode":"604","island":null,"full_address":null,"usr_keywords":null,"description":null,"categories":["771104"],"usr_address1":null,"usr_address2":null,"usr_address3":null,"usr_address4":null,"rating":0,"type":"business","votes":0,"volatile":"0","lon":"174.655437500000","lat":"-36.931516400000","verified":0,"authority":null,"authority_id":null,"aa_client_id":null,"bookonline":null,"info_source":null,"search_index_alpha":"g","lastResponse":null},"fqLocationIdentifier":"auckland\/auckland\/titirangi\/atkinson+road\/atkinson+road+titirangi\/lon=174.655437500000;lat=-36.931516400000","directionsIdentifier":"Atkinson+Road+Titirangi%2C+Atkinson+Road%2C+Titirangi%2C+Auckland;174.6554375;-36.9315164"},{"id":"100658","uuid":"5A54AF27F7E74300BCF0B9181CFA8C35","name":"Caversham Valley Road Calton Hill","alternate_name":null,"brand":null,"shop_unit":null,"floor_level":null,"street":"Caversham Valley Road","st_number":null,"building":null,"postcode":"9012","telephone":null,"fax":null,"email":null,"www":null,"qualmark":null,"x":"2313679.5600000000","y":"5476088.7900000000","suburb":"Calton Hill","district":"Dunedin City","region":"Otago","town":"Dunedin","lon":"170.472090000000","lat":"-45.895670000000","categories":["771104"],"volatile":"0","authority":"GS","authority_id":null,"type":"business","usr_address1":null,"usr_address2":null,"usr_address3":null,"usr_address4":null,"aa_client_id":null,"bookonline":null,"votes":0,"rating":0,"search_index_num":8,"search_index_alpha":"h","jsclass":"GSPointFeature","obj":{"id":"100658","uuid":"5A54AF27F7E74300BCF0B9181CFA8C35","url":null,"name":"Caversham Valley Road Calton Hill","brand":null,"street":"Caversham Valley Road","st_number":null,"shop_unit":null,"floor_level":null,"building":null,"telephone":null,"tel_after_hours":null,"fax":null,"email":null,"www":null,"suburb":"Calton Hill","district":"Dunedin City","region":"Otago","town":"Dunedin","postcode":"9012","island":null,"full_address":null,"usr_keywords":null,"description":null,"categories":["771104"],"usr_address1":null,"usr_address2":null,"usr_address3":null,"usr_address4":null,"rating":0,"type":"business","votes":0,"volatile":"0","lon":"170.472090000000","lat":"-45.895670000000","verified":0,"authority":null,"authority_id":null,"aa_client_id":null,"bookonline":null,"info_source":null,"search_index_alpha":"h","lastResponse":null},"fqLocationIdentifier":"otago\/dunedin+city\/calton+hill\/caversham+valley+road\/caversham+valley+road+calton+hill\/lon=170.472090000000;lat=-45.895670000000","directionsIdentifier":"Caversham+Valley+Road+Calton+Hill%2C+Caversham+Valley+Road%2C+Calton+Hill%2C+Dunedin;170.47209;-45.89567"},{"id":"100688","uuid":"C422507A064B49BF95E00C2F3BCC39D6","name":"Centennial Highway Ngauranga Gorge","alternate_name":null,"brand":null,"shop_unit":null,"floor_level":null,"street":"Centennial Highway","st_number":null,"building":null,"postcode":"6035","telephone":null,"fax":null,"email":null,"www":null,"qualmark":null,"x":"2661361.2100000000","y":"5995201.8600000000","suburb":"Ngauranga","district":"Wellington City","region":"Wellington","town":"Wellington","lon":"174.805904000000","lat":"-41.235844000000","categories":["771104"],"volatile":"0","authority":"GS","authority_id":null,"type":"business","usr_address1":null,"usr_address2":null,"usr_address3":null,"usr_address4":null,"aa_client_id":null,"bookonline":null,"votes":0,"rating":0,"search_index_num":9,"search_index_alpha":"i","jsclass":"GSPointFeature","obj":{"id":"100688","uuid":"C422507A064B49BF95E00C2F3BCC39D6","url":null,"name":"Centennial Highway Ngauranga Gorge","brand":null,"street":"Centennial Highway","st_number":null,"shop_unit":null,"floor_level":null,"building":null,"telephone":null,"tel_after_hours":null,"fax":null,"email":null,"www":null,"suburb":"Ngauranga","district":"Wellington City","region":"Wellington","town":"Wellington","postcode":"6035","island":null,"full_address":null,"usr_keywords":null,"description":null,"categories":["771104"],"usr_address1":null,"usr_address2":null,"usr_address3":null,"usr_address4":null,"rating":0,"type":"business","votes":0,"volatile":"0","lon":"174.805904000000","lat":"-41.235844000000","verified":0,"authority":null,"authority_id":null,"aa_client_id":null,"bookonline":null,"info_source":null,"search_index_alpha":"i","lastResponse":null},"fqLocationIdentifier":"wellington\/wellington+city\/ngauranga\/centennial+highway\/centennial+highway+ngauranga+gorge\/lon=174.805904000000;lat=-41.235844000000","directionsIdentifier":"Centennial+Highway+Ngauranga+Gorge%2C+Centennial+Highway%2C+Ngauranga%2C+Wellington;174.805904;-41.235844"},{"id":"100619","uuid":"07A8293D26C745D5A24B70E003D00541","name":"Chapel Street Bureta","alternate_name":null,"brand":null,"shop_unit":null,"floor_level":null,"street":"Chapel Street","st_number":null,"building":null,"postcode":"3110","telephone":null,"fax":null,"email":null,"www":null,"qualmark":null,"x":"2788826.8300000000","y":"6387575.2300000000","suburb":"Bureta","district":"Tauranga City","region":"Bay of Plenty","town":"Tauranga","lon":"176.158731400000","lat":"-37.670239900000","categories":["771104"],"volatile":"0","authority":"GS","authority_id":null,"type":"business","usr_address1":null,"usr_address2":null,"usr_address3":null,"usr_address4":null,"aa_client_id":null,"bookonline":null,"votes":0,"rating":0,"search_index_num":10,"search_index_alpha":"j","jsclass":"GSPointFeature"}



